City_ID,City,Lat,Lng,Max Temp,Humidity,Cloudiness,Wind Speed,Country,Date
0,anadyr,64.75,177.4833,-20.56,76,0,8.0,RU,1703904235
1,udachny,66.4167,112.4,-25.31,83,100,3.35,RU,1703904236
2,whitehorse,60.7161,-135.0538,-10.5,89,100,0.0,CA,1703904153
3,grytviken,-54.2811,-36.5092,-0.45,76,84,2.88,GS,1703904236
4,bilibino,68.0546,166.4372,-41.8,99,55,1.3,RU,1703904236
5,wailua homesteads,22.0669,-159.378,26.24,78,21,0.89,US,1703904236
6,bethel,41.3712,-73.414,8.3,80,100,3.09,US,1703904237
7,stanley,54.868,-1.6985,1.82,93,0,6.69,GB,1703904237
8,dudinka,69.4058,86.1778,-25.88,95,100,6.42,RU,1703904237
9,albany,42.6001,-73.9662,5.93,92,100,2.48,US,1703904109
10,adamstown,-25.066,-130.1015,22.67,78,99,7.79,PN,1703904237
11,port elizabeth,-33.918,25.5701,18.51,89,0,4.63,ZA,1703903941
12,iqaluit,63.7506,-68.5145,-9.15,92,100,5.66,CA,1703904238
13,cooper's town,26.8667,-77.5167,20.22,67,100,5.08,BS,1703904238
14,annau,37.8876,58.516,-1.28,93,0,2.06,TM,1703904238
15,tofol,5.3248,163.0078,30.88,70,75,5.14,FM,1703904238
16,badagry,6.4167,2.8833,24.67,87,2,1.61,NG,1703904239
17,galle,6.0367,80.217,26.17,79,89,2.2,LK,1703904239
18,invercargill,-46.4,168.35,16.68,68,20,3.58,NZ,1703904239
19,port-aux-francais,-49.35,70.2167,5.05,83,94,15.05,TF,1703904239
20,bredasdorp,-34.5322,20.0403,20.76,92,100,4.54,ZA,1703904239
21,longyearbyen,78.2186,15.6401,0.91,60,75,7.72,SJ,1703904240
22,haiku-pauwela,20.9219,-156.3051,23.01,75,40,8.23,US,1703904240
23,punta arenas,-53.15,-70.9167,10.06,81,75,9.26,CL,1703904122
24,sandpoint,48.2766,-116.5533,2.01,92,0,6.17,US,1703904240
25,puerto natales,-51.7236,-72.4875,9.08,94,100,2.47,CL,1703904241
26,mangrol,21.1167,70.1167,21.84,54,4,3.51,IN,1703904241
27,yellowknife,62.456,-114.3525,-9.71,92,100,3.09,CA,1703904241
28,dauphin,51.1494,-100.0502,-2.92,80,100,4.63,CA,1703904241
29,kant,27.8,79.8,13.74,67,38,1.22,IN,1703904241
30,preobrazheniye,42.9019,133.9064,0.21,62,100,2.38,RU,1703904242
31,bamboo flat,11.7,92.7167,29.05,74,40,4.12,IN,1703904242
32,siocon,7.7061,122.1353,29.4,74,36,1.02,PH,1703904242
33,vernal,40.4555,-109.5287,-5.75,69,0,0.45,US,1703904243
34,odienne,9.51,-7.5692,19.44,16,0,1.21,CI,1703904243
35,puerto ayora,-0.7393,-90.3518,24.75,96,71,2.24,EC,1703904243
36,baume-les-dames,47.353,6.3612,9.7,97,88,3.51,FR,1703904243
37,port blair,11.6667,92.75,29.02,74,40,4.12,IN,1703904244
38,ust-nera,64.5667,143.2,-43.35,98,84,1.65,RU,1703904244
39,vilyuchinsk,52.9306,158.4028,-10.85,68,100,3.73,RU,1703904244
40,waitangi,-43.9535,-176.5597,18.79,95,100,4.92,NZ,1703904245
41,biella,45.5871,8.0859,6.49,79,100,1.33,IT,1703904245
42,hermanus,-34.4187,19.2345,20.45,86,100,5.12,ZA,1703904245
43,mount isa,-20.7333,139.5,40.87,24,0,6.17,AU,1703904173
44,timbuktu,16.7735,-3.0074,17.57,17,0,4.69,ML,1703904246
45,puerto san jose,13.9256,-90.8244,25.09,81,79,1.46,GT,1703904246
46,walvis bay,-22.9575,14.5053,16.16,88,0,0.51,NA,1703904247
47,aasiaat,68.7098,-52.8699,-23.73,88,97,5.52,GL,1703904247
48,nemuro,43.3236,145.575,0.85,66,9,6.89,JP,1703904247
49,kailua-kona,19.6406,-155.9956,26.95,81,75,3.6,US,1703904001
50,taskopru,41.5098,34.2141,3.32,65,35,0.81,TR,1703904248
51,ushuaia,-54.8,-68.3,8.81,87,40,2.06,AR,1703904024
52,hasaki,35.7333,140.8333,15.16,68,57,2.71,JP,1703904248
53,talnakh,69.4865,88.3972,-19.34,98,100,1.32,RU,1703904249
54,hotan,37.0997,79.9269,-0.39,44,36,1.53,CN,1703904079
55,edinburgh of the seven seas,-37.0676,-12.3116,17.69,98,100,4.17,SH,1703904249
56,contamana,-7.3333,-75.0167,24.33,88,100,1.09,PE,1703904249
57,sitka,57.0531,-135.33,11.94,58,100,7.72,US,1703904101
58,blackmans bay,-43.0167,147.3167,15.07,58,84,0.89,AU,1703904250
59,buckeburg,52.2607,9.0494,7.68,87,40,6.69,DE,1703904250
60,fort st. john,56.2499,-120.8529,-6.06,93,75,2.06,CA,1703904251
61,tiksi,71.6872,128.8694,-36.01,98,69,4.67,RU,1703904251
62,alofi,-19.0595,-169.9187,28.94,70,35,7.2,NU,1703904251
63,carnarvon,-24.8667,113.6333,24.72,64,7,5.64,AU,1703904252
64,susuman,62.7833,148.1667,-37.23,99,100,0.89,RU,1703904252
65,muynoq,43.7683,59.0214,0.33,72,22,5.03,UZ,1703904252
66,west island,-12.1568,96.8225,27.99,83,100,3.6,CC,1703904253
67,vadso,70.0744,29.7487,-8.91,100,20,4.12,NO,1703904253
68,rumphi,-11.0186,33.8575,18.95,80,99,0.64,MW,1703904253
69,port alfred,-33.5906,26.891,22.03,84,100,5.59,ZA,1703904254
70,mingguang,32.7802,117.9638,12.04,70,9,4.6,CN,1703904254
71,ghadamis,30.1337,9.5007,12.55,42,0,2.77,LY,1703904254
72,weyburn,49.6668,-103.8511,-4.88,86,0,4.12,CA,1703904255
73,usinsk,65.9939,57.5281,-14.96,91,93,5.81,RU,1703904255
74,korsor,55.3299,11.1386,5.17,88,100,8.55,DK,1703904255
75,colonia,50.9333,6.95,9.98,78,20,5.14,DE,1703904109
76,lincheng,19.9078,109.6858,22.09,86,99,5.94,CN,1703904256
77,zdvinsk,54.7021,78.661,-8.44,87,100,9.55,RU,1703904256
78,zhanaozen,43.3,52.8,6.11,94,73,7.16,KZ,1703904081
79,nova vicosa,-17.8919,-39.3719,25.26,83,100,5.41,BR,1703904257
80,el porvenir,13.7617,-87.3458,23.63,88,90,1.74,HN,1703904257
81,erenhot,43.6475,111.9767,-9.54,91,97,4.9,CN,1703904257
82,lisala,2.15,21.5167,21.64,56,76,0.14,CD,1703904257
83,vernon,50.2581,-119.2691,4.23,95,99,1.03,CA,1703904258
84,chonchi,-42.6128,-73.8092,15.56,83,0,2.03,CL,1703904258
85,ribeira grande,38.5167,-28.7,16.54,67,40,5.66,PT,1703904259
86,saint croix,17.7397,-64.7388,23.31,77,0,2.06,VI,1703904259
87,eugene,44.0521,-123.0867,11.03,92,100,2.06,US,1703903982
88,barranca,-10.75,-77.7667,21.62,84,100,2.95,PE,1703904260
89,hammerfest,70.6634,23.6821,-6.75,68,7,4.63,NO,1703904260
90,ivdel',60.6911,60.4206,-11.1,92,100,5.36,RU,1703904260
91,kerikeri,-35.2268,173.9474,26.09,58,5,4.71,NZ,1703904261
92,al jawf,29.5,38.75,12.17,80,100,3.42,SA,1703904261
93,olonkinbyen,70.9221,-8.7187,-8.49,73,100,8.22,SJ,1703904167
94,puerto lempira,15.2667,-83.7667,24.84,85,100,2.26,HN,1703904262
95,minas de marcona,-15.2119,-75.1103,17.15,86,96,3.63,PE,1703904262
96,ribeira brava,32.65,-17.0667,19.35,67,40,2.47,PT,1703904263
97,ilulissat,69.2167,-51.1,-13.99,47,40,6.17,GL,1703904263
98,gorom-gorom,14.4439,-0.2361,19.23,15,0,4.11,BF,1703904263
99,pangody,65.85,74.4859,-11.18,93,100,10.22,RU,1703904264
100,san vicente de chucuri,6.881,-73.4098,22.65,93,68,1.08,CO,1703904264
101,hithadhoo,-0.6,73.0833,27.02,80,89,1.0,MV,1703904264
102,wajir,1.7471,40.0573,26.59,74,96,5.51,KE,1703904265
103,isafjordur,66.0755,-23.124,-8.82,81,39,1.57,IS,1703904265
104,la ronge,55.1001,-105.2842,-10.86,85,0,1.54,CA,1703904266
105,kavali,14.9167,79.9833,24.49,68,43,2.25,IN,1703904266
106,hamilton,39.1834,-84.5333,3.01,88,100,4.02,US,1703904040
107,panama city beach,30.1766,-85.8055,8.38,76,0,2.06,US,1703904266
108,grande prairie,55.1667,-118.8027,-7.9,93,75,2.06,CA,1703904002
109,kolonia,50.9333,6.95,9.98,78,20,5.14,DE,1703904109
110,blackwater,-23.5833,148.8833,37.88,28,0,4.99,AU,1703904267
111,jhang sadr,31.2715,72.3284,13.43,38,100,0.88,PK,1703904267
112,havelberg,52.8309,12.0755,7.15,84,99,7.24,DE,1703904268
113,penzance,50.1186,-5.5371,11.38,90,100,10.43,GB,1703904268
114,guajara mirim,-10.7828,-65.3394,23.9,89,92,1.06,BR,1703904268
115,college,64.8569,-147.8028,-33.03,65,20,0.0,US,1703904269
116,leava,-14.3,-178.1667,28.67,76,100,6.07,WF,1703904269
117,tidjikja,18.5564,-11.4271,17.94,13,49,5.57,MR,1703904269
118,pineville,31.3224,-92.4343,6.04,65,0,3.09,US,1703904021
119,badger,64.8,-147.5333,-33.07,66,0,0.0,US,1703904270
120,brookings,44.3114,-96.7984,0.21,92,0,4.63,US,1703904032
121,derazhnya,49.2692,27.4338,4.11,87,52,3.91,UA,1703904249
122,greymouth,-42.4667,171.2,17.88,70,10,3.0,NZ,1703904271
123,namibe,-15.1961,12.1522,20.04,81,78,2.65,AO,1703904271
124,hanceville,34.0607,-86.7675,4.94,97,99,2.58,US,1703904271
125,mil'kovo,55.6078,37.7956,3.02,99,100,6.75,RU,1703904272
126,jarny,49.1574,5.8788,9.45,91,87,3.58,FR,1703904272
127,veinticinco de mayo,-35.4323,-60.1727,13.88,68,0,1.34,AR,1703904272
128,muisne,0.6,-80.0333,25.3,88,98,2.05,EC,1703904272
129,aitape,-3.1374,142.3475,29.11,78,78,2.36,PG,1703904273
130,kodiak,57.79,-152.4072,-7.27,79,0,1.54,US,1703904273
131,avarua,-21.2078,-159.775,28.03,61,80,5.66,CK,1703904273
132,magadan,59.5667,150.8,-24.57,77,97,4.23,RU,1703904274
133,hawaiian paradise park,19.5933,-154.9731,22.24,94,100,2.06,US,1703904274
134,rosarito,32.3333,-117.0333,15.23,81,100,1.25,MX,1703904274
135,charlestown,-32.95,151.6667,27.23,71,31,2.68,AU,1703904089
136,morehead city,34.7229,-76.726,9.0,68,0,7.72,US,1703904275
137,andergrove,-21.0833,149.1833,35.36,70,13,6.67,AU,1703904275
138,lompoc,34.6391,-120.4579,16.23,81,0,4.12,US,1703904275
139,flying fish cove,-10.4217,105.6791,28.82,78,40,6.69,CX,1703904276
140,paita,-5.0892,-81.1144,22.84,80,100,4.71,PE,1703904276
141,rio grande,-32.035,-52.0986,17.19,65,21,8.5,BR,1703904277
142,bubaque,11.2833,-15.8333,25.87,73,0,4.26,GW,1703904277
143,coquimbo,-29.9533,-71.3436,16.85,88,75,3.6,CL,1703904196
144,lusaka,-15.4067,28.2871,16.58,99,44,1.71,ZM,1703904177
145,bokoro,12.3807,17.0568,19.5,23,12,4.37,TD,1703904278
146,utrik,11.2278,169.8474,27.32,82,80,8.86,MH,1703904278
147,nelson bay,-32.7167,152.15,26.72,68,14,2.24,AU,1703904278
148,balabac,7.9868,117.0645,28.67,77,73,6.85,PH,1703904279
149,papatowai,-46.5619,169.4708,16.71,50,61,3.79,NZ,1703904279
150,dourados,-22.2211,-54.8056,22.38,83,35,2.12,BR,1703904279
151,saipan,15.1355,145.701,29.39,70,75,9.26,MP,1703904279
152,katsuren-haebaru,26.3369,127.8719,25.01,83,100,6.69,JP,1703904280
153,jamestown,42.097,-79.2353,2.77,90,100,2.57,US,1703904280
154,enewetak,11.3474,162.3373,27.71,81,96,6.39,MH,1703904280
155,karaton,-6.3424,106.1045,30.79,64,27,1.42,ID,1703904281
156,nuriootpa,-34.4833,139.0,21.1,34,0,7.23,AU,1703904149
157,chegdomyn,51.1167,133.0167,-22.86,87,83,0.88,RU,1703904281
158,port mathurin,-19.6833,63.4167,27.37,76,74,3.02,MU,1703904282
159,arrifes,37.7667,-25.7,15.14,59,20,3.6,PT,1703904282
160,nouadhibou,20.931,-17.0347,20.99,37,58,5.14,MR,1703904282
161,constantia,44.1833,28.65,5.39,82,83,3.85,RO,1703904282
162,las vegas,36.175,-115.1372,14.38,33,0,2.57,US,1703903928
163,shakhovskaya,56.0283,35.5097,0.86,99,100,7.12,RU,1703904283
164,ta`u,-14.2336,-169.5144,28.27,78,100,5.58,AS,1703904283
165,tsengel,49.4783,100.8894,-16.45,83,40,1.64,MN,1703904283
166,iskateley,67.6803,53.1512,-16.1,97,99,4.02,RU,1703904284
167,petropavlovsk-kamchatsky,53.0452,158.6483,-11.67,85,75,6.26,RU,1703904284
168,the pas,53.8251,-101.2541,-6.99,79,0,6.17,CA,1703904284
169,cabo san lucas,22.8909,-109.9124,22.17,65,0,1.03,MX,1703903613
170,thompson,55.7435,-97.8558,-7.91,86,100,3.6,CA,1703904141
171,okha,53.5739,142.9478,-19.88,92,100,11.08,RU,1703903985
172,hovd,48.0056,91.6419,-11.95,78,100,0.99,MN,1703904237
173,alice springs,-23.7,133.8833,35.75,16,5,7.2,AU,1703904285
174,griffith,41.5284,-87.4237,3.62,90,100,2.57,US,1703904003
175,aykhal,66.0,111.5,-26.3,98,100,5.04,RU,1703904285
176,mount gambier,-37.8333,140.7667,18.39,45,57,4.85,AU,1703904286
177,boca suno,-0.7167,-77.1333,21.9,98,99,0.71,EC,1703904286
178,gyumri,40.7942,43.8453,-9.21,86,6,1.03,AM,1703904286
179,klaksvik,62.2266,-6.589,1.51,69,100,8.22,FO,1703904286
180,farafangana,-22.8167,47.8333,23.82,94,100,3.8,MG,1703904287
181,port lincoln,-34.7333,135.8667,18.73,57,23,6.44,AU,1703904287
182,qaqortoq,60.7167,-46.0333,-16.91,69,0,2.31,GL,1703904287
183,lihue,21.9789,-159.3672,26.58,71,17,3.49,US,1703904287
184,korla,41.7597,86.1469,-3.74,63,100,2.85,CN,1703904287
185,ulladulla,-35.35,150.4667,20.66,67,11,4.91,AU,1703904288
186,geraldton,-28.7667,114.6,27.23,61,53,9.26,AU,1703904288
187,long beach,33.767,-118.1892,15.76,91,0,0.45,US,1703904238
188,lagoa,39.05,-27.9833,15.74,70,100,8.33,PT,1703904288
189,jayapura,-2.5333,140.7,31.66,68,100,2.48,ID,1703904289
190,hooper,41.1638,-112.1224,4.08,72,0,0.0,US,1703904289
191,new norfolk,-42.7826,147.0587,15.72,42,87,5.24,AU,1703904289
192,wloclawek,52.6482,19.0678,9.18,75,100,9.53,PL,1703904273
193,pemba,-12.974,40.5178,27.39,94,75,3.6,MZ,1703904290
194,nizhnesortymskiy,62.4397,71.7603,-6.81,95,100,5.0,RU,1703904290
195,fale old settlement,-9.3852,-171.2468,29.25,70,100,6.55,TK,1703904290
196,dunedin,-45.8742,170.5036,12.67,91,63,1.79,NZ,1703904071
197,vilyuysk,63.7553,121.6247,-47.22,100,80,0.89,RU,1703904291
198,strezhevoy,60.7333,77.5889,-8.41,92,100,7.35,RU,1703904291
199,machico,32.7,-16.7667,19.35,71,20,3.09,PT,1703904291
200,dolisie,-4.1997,12.6739,20.87,97,100,0.63,CG,1703904291
201,kholmsk,47.0511,142.0569,-7.19,79,100,5.39,RU,1703904292
202,murun-kuren,49.6342,100.1625,-16.11,86,32,1.28,MN,1703904292
203,georgetown,5.4112,100.3354,28.86,85,40,2.06,MY,1703904211
204,tsiombe,-25.3,45.4833,23.68,85,93,7.29,MG,1703904292
205,pandan,14.0453,124.1694,26.9,88,99,4.8,PH,1703904292
206,mogocha,53.7333,119.7667,-21.0,86,45,0.76,RU,1703904293
207,murudeshwara,14.0943,74.4845,25.93,60,17,2.62,IN,1703904293
208,jackson,42.4165,-122.8345,11.11,85,100,2.57,US,1703904293
209,vila franca do campo,37.7167,-25.4333,16.23,78,100,2.58,PT,1703904293
210,puerto baquerizo moreno,-0.9,-89.6,23.96,89,42,3.77,EC,1703904294
211,praia da vitoria,38.7333,-27.0667,14.86,100,40,4.02,PT,1703904294
212,lappeenranta,61.0587,28.1887,-2.97,93,100,5.66,FI,1703904294
213,verkhnevilyuysk,63.4453,120.3167,-44.87,100,66,0.98,RU,1703904294
214,midvagur,62.0511,-7.1939,1.46,75,83,4.63,FO,1703904294
215,paphos,34.7667,32.4167,11.88,71,0,3.6,CY,1703904295
216,macusani,-14.0833,-70.4333,6.21,73,98,0.56,PE,1703904295
217,freetown,8.484,-13.2299,24.67,82,0,2.66,SL,1703904217
218,eldorado,-23.7869,-54.2836,21.73,93,26,2.35,BR,1703904295
219,pisco,-13.7,-76.2167,22.03,88,0,6.17,PE,1703904295
220,tindouf,27.6711,-8.1474,11.23,28,44,1.58,DZ,1703904296
221,arraias,-12.9288,-46.9437,21.24,92,100,1.4,BR,1703904296
222,lebu,-37.6167,-73.65,12.89,88,1,5.76,CL,1703904296
223,polyarnyy,69.1989,33.4478,-15.48,100,99,2.0,RU,1703904296
224,mirny,62.5353,113.9611,-30.44,97,100,1.68,RU,1703904297
225,sisimiut,66.9395,-53.6735,-15.1,71,100,6.48,GL,1703904297
226,ascension,30.2169,-90.9001,7.83,65,0,0.0,US,1703904297
227,sinabang,2.4803,96.3801,27.01,83,100,2.27,ID,1703904297
228,ola,59.5833,151.2833,-24.57,78,93,4.4,RU,1703904297
229,vorgashor,67.5833,63.95,-19.31,92,6,7.82,RU,1703904298
230,island harbour,50.724,-1.2758,8.88,86,99,0.45,GB,1703904298
231,merizo village,13.2658,144.6691,31.31,80,90,9.63,GU,1703904298
232,khenchela,35.4358,7.1433,8.22,53,100,2.43,DZ,1703904298
233,montale,43.9356,11.0171,11.84,94,100,1.34,IT,1703904299
234,khovd,48.0056,91.6419,-11.95,78,100,0.99,MN,1703904012
235,hobyo,5.3505,48.5268,25.35,76,88,7.6,SO,1703904299
236,ariquemes,-9.9133,-63.0408,23.95,91,9,1.19,BR,1703904299
237,san juan de miraflores,-12.1629,-76.9635,24.54,76,100,3.18,PE,1703904300
238,nueve de julio,-35.4444,-60.8831,12.8,66,0,3.47,AR,1703904300
239,manokwari,-0.8667,134.0833,28.19,77,27,2.08,ID,1703904300
240,castillos,-34.1667,-53.8333,15.44,55,70,5.69,UY,1703904300
241,sampacho,-33.3839,-64.7221,16.53,52,63,1.75,AR,1703904300
242,bereket,39.2446,55.5154,3.6,60,0,4.29,TM,1703904301
243,imbituba,-28.24,-48.6703,22.23,88,93,5.94,BR,1703904209
244,manati,18.4275,-66.4921,24.84,93,37,3.13,PR,1703904301
245,haradok,55.4624,29.9816,2.73,90,84,5.53,BY,1703904302
246,oranjemund,-28.55,16.4333,17.73,84,0,2.6,NA,1703904302
247,sovetskaya gavan',48.9723,140.2878,-13.27,73,14,1.65,RU,1703904303
248,hadibu,12.65,54.0333,23.6,77,61,4.29,YE,1703904303
249,rockland,41.1668,-74.0496,8.24,84,100,0.45,US,1703904304
250,happy valley-goose bay,53.3168,-60.3315,-8.83,73,100,1.54,CA,1703904304
251,pacific grove,36.6177,-121.9166,13.7,90,100,0.89,US,1703904060
252,port isabel,26.0734,-97.2086,12.25,83,0,0.0,US,1703904305
253,margaret river,-33.95,115.0667,21.49,66,91,4.22,AU,1703904305
254,road town,18.4167,-64.6167,25.02,73,40,2.57,VG,1703904306
255,ploneour-lanvern,47.9,-4.2833,11.18,93,75,3.09,FR,1703904306
256,gweru,-19.45,29.8167,14.43,96,100,4.47,ZW,1703904306
257,lazaro cardenas,17.9583,-102.2,22.53,76,0,1.45,MX,1703904307
258,portao,-29.7017,-51.2419,22.02,84,30,2.24,BR,1703904040
259,waddan,29.1614,16.139,10.13,65,0,2.13,LY,1703904307
260,acapulco de juarez,16.8634,-99.8901,24.9,73,0,1.54,MX,1703904308
261,umluj,25.0213,37.2685,20.28,56,0,6.4,SA,1703904308
262,northam,51.0333,-4.2167,8.47,93,100,5.89,GB,1703904308
263,hami,42.8,93.45,-5.58,72,82,1.8,CN,1703904309
264,cromwell,41.5951,-72.6454,8.88,97,100,1.54,US,1703904309
265,pemangkat,1.1667,108.9667,27.77,80,96,1.57,ID,1703904309
266,rudbar,30.15,62.6,6.67,67,5,2.68,AF,1703904310
267,howrah,22.5892,88.3103,18.0,88,0,3.09,IN,1703904310
268,al kharijah,25.4514,30.5464,13.67,72,0,3.52,EG,1703904310
269,weno,7.4515,151.8468,30.97,74,75,2.57,FM,1703904311
270,idrinskoye,54.3708,92.1358,-6.14,97,100,1.24,RU,1703904311
271,hirara,24.8,125.2833,25.15,88,75,6.17,JP,1703904312
272,jutai,-5.1833,-68.9,23.04,94,97,1.07,BR,1703904312
273,mogadishu,2.0371,45.3438,26.24,81,96,7.89,SO,1703904312
274,usogorsk,63.4106,48.6872,-22.08,100,100,1.53,RU,1703904313
275,woodbury,42.3833,-96.0336,-2.97,92,8,2.64,US,1703904313
276,klyuchi,52.2667,79.1667,-4.54,75,100,9.58,RU,1703904313
277,kryve ozero,47.9524,30.3493,3.63,77,23,2.0,UA,1703904314
278,westport,41.1415,-73.3579,9.6,71,100,2.57,US,1703904016
279,talcahuano,-36.7167,-73.1167,15.82,88,0,2.57,CL,1703904314
280,newman,37.3138,-121.0208,16.99,68,49,1.34,US,1703904314
281,portland,45.5234,-122.6762,10.2,88,100,7.2,US,1703903799
282,neryungri,56.6709,124.6491,-30.6,99,83,0.2,RU,1703904315
283,naze,28.3667,129.4833,17.51,77,96,7.06,JP,1703904315
284,slave lake,55.2834,-114.769,-8.01,86,0,2.57,CA,1703904199
285,severo-yeniseyskiy,60.3725,93.0408,-5.24,92,100,4.92,RU,1703904316
286,sola,-13.8833,167.55,27.95,74,97,2.98,VU,1703904316
287,shimoda,34.6667,138.95,14.2,56,11,0.52,JP,1703904316
288,kapuskasing,49.4169,-82.4331,-7.0,86,100,2.57,CA,1703904317
289,al ghayzah,16.2079,52.176,21.01,88,89,2.49,YE,1703904317
290,codrington,-38.2667,141.9667,16.46,57,74,6.57,AU,1703904318
291,luwuk,-0.9516,122.7875,31.03,66,71,1.25,ID,1703904318
292,urangan,-25.3,152.9,27.56,82,5,8.99,AU,1703904318
293,blenheim,-41.516,173.9528,26.96,52,42,2.24,NZ,1703904319
294,vorkuta,67.5,64.0,-18.77,91,6,7.13,RU,1703904319
295,acarau,-2.8856,-40.12,26.43,86,75,4.62,BR,1703904195
296,elverum,60.8819,11.5623,-4.39,96,100,2.2,NO,1703904320
297,atafu village,-8.5421,-172.5159,29.43,68,100,6.68,TK,1703904320
298,nagqu,31.5,92.0,-14.98,35,0,2.01,CN,1703904321
299,vuktyl,63.8567,57.3094,-9.38,92,100,4.02,RU,1703904321
300,sandnessjoen,66.0217,12.6316,-6.71,70,100,8.65,NO,1703904321
301,frolovo,49.7713,43.6622,0.77,94,98,4.37,RU,1703904322
302,lubango,-14.9172,13.4925,14.47,83,41,1.17,AO,1703904322
303,burutu,5.3509,5.5076,25.12,81,14,1.42,NG,1703904322
304,pendleton,45.6721,-118.7886,5.99,83,75,4.63,US,1703904323
305,richards bay,-28.783,32.0377,18.67,92,7,2.25,ZA,1703904323
306,cornwall,45.0181,-74.7281,2.58,100,100,3.09,CA,1703904311
307,nizhneudinsk,54.9076,99.0276,-4.47,88,100,1.04,RU,1703904324
308,pimentel,-6.8367,-79.9342,23.16,83,20,7.2,PE,1703904324
309,ulaangom,49.9811,92.0667,-17.14,94,100,0.46,MN,1703904324
310,manistee,44.2445,-86.3242,4.41,83,9,1.34,US,1703904324
311,verdal,63.7933,11.4817,-1.98,84,100,2.57,NO,1703904325
312,zouerate,22.7187,-12.4521,15.39,13,35,3.68,MR,1703904325
313,kingston,17.997,-76.7936,27.53,74,40,1.03,JM,1703904325
314,whangarei,-35.7317,174.3239,29.66,42,6,2.7,NZ,1703904326
315,alba,52.0324,23.1165,7.4,82,100,6.32,PL,1703904326
316,yarmouth,41.7057,-70.2286,8.34,98,100,2.57,US,1703904327
317,alta,69.9689,23.2717,-10.41,79,75,4.12,NO,1703904327
318,luderitz,-26.6481,15.1594,16.29,87,0,1.32,NA,1703904328
319,siwa oasis,29.2041,25.5195,13.31,76,4,2.36,EG,1703904305
320,arraial do cabo,-22.9661,-42.0278,24.94,91,100,6.87,BR,1703904328
321,pruzhany,52.5567,24.4644,5.91,88,89,5.64,BY,1703904329
322,kempsey,-31.0833,152.8333,27.19,62,58,6.71,AU,1703904329
323,steubenville,40.3698,-80.634,2.67,87,100,2.24,US,1703904209
324,tazovsky,67.4667,78.7,-14.35,93,100,9.15,RU,1703904329
325,urumqi,43.801,87.6005,-2.47,80,100,2.0,CN,1703904330
326,skvyra,49.7318,29.6657,4.52,87,84,4.37,UA,1703904330
327,macon,39.8667,-88.9668,3.03,87,100,4.63,US,1703904331
328,pizarro,4.9533,-77.366,24.98,90,90,1.33,CO,1703904331
329,papao,-17.75,-149.55,29.82,78,100,1.57,PF,1703904331
330,rikaze,29.25,88.8833,-1.14,11,0,0.18,CN,1703904332
331,albertina,-22.2008,-46.6158,22.75,47,99,1.53,BR,1703904332
332,uturoa,-16.7333,-151.4333,28.13,76,97,4.14,PF,1703904332
333,gebeit,21.0667,36.3167,15.35,76,0,1.91,SD,1703904332
334,akhtubinsk,48.2795,46.1722,4.02,94,100,3.73,RU,1703904333
335,namtsy,62.7161,129.6658,-45.5,98,100,0.17,RU,1703904333
336,clarkston heights-vineland,46.3874,-117.083,10.43,66,0,5.14,US,1703904333
337,cushing,35.9851,-96.767,4.47,60,0,3.6,US,1703904334
338,cheremukhovo,60.3484,59.9851,-11.77,90,100,4.4,RU,1703904334
339,kamina,-8.7386,24.9906,17.26,99,100,1.77,CD,1703904334
340,san pedro pochutla,15.7333,-96.4667,22.4,85,27,1.16,MX,1703904335
341,alenquer,-1.9417,-54.7383,24.37,94,75,0.97,BR,1703904335
342,parkes,-33.1333,148.1833,29.08,31,13,0.89,AU,1703904335
343,terbanggi besar,-4.8667,105.2333,31.48,62,62,0.78,ID,1703904336
344,charters towers,-20.1,146.2667,37.52,26,0,3.51,AU,1703904336
345,praya,14.9215,-23.5087,24.3,35,0,5.66,CV,1703904336
346,tan-tan,28.438,-11.1032,16.92,22,77,3.18,MA,1703904336
347,clarence-rockland,45.5501,-75.291,2.19,94,100,2.79,CA,1703904337
348,camana,-16.6228,-72.7111,21.41,88,93,2.93,PE,1703904337
349,kerman,30.2832,57.0788,-1.08,69,0,2.06,IR,1703904338
350,dakhla,23.6848,-15.958,20.28,38,100,3.43,EH,1703904338
351,celestun,20.8667,-90.4,20.42,76,99,8.54,MX,1703904338
352,meulaboh,4.1363,96.1285,26.89,81,98,0.58,ID,1703904339
353,caconda,-13.7333,15.0667,13.97,95,12,2.14,AO,1703904339
354,mossendjo,-2.9506,12.7261,21.43,100,100,0.51,CG,1703904339
355,serenje,-13.2325,30.2352,16.17,96,98,1.25,ZM,1703904340
356,saskatoon,52.1168,-106.6345,-9.01,92,20,1.03,CA,1703904152
357,labytnangi,66.6572,66.4183,-15.04,80,94,11.7,RU,1703904340
358,pathein,16.7833,94.7333,26.52,63,92,3.09,MM,1703904341
359,sao borja,-28.6606,-56.0044,21.08,93,26,1.35,BR,1703904341
360,benguela,-12.5763,13.4055,24.6,78,78,0.53,AO,1703904341
361,san antonio,29.4241,-98.4936,11.45,47,0,2.06,US,1703904341
362,zaragoza,41.6561,-0.8773,8.9,93,40,1.03,ES,1703904342
363,forster,-32.1667,152.5167,27.43,62,45,5.88,AU,1703904342
364,salaga,8.5508,-0.5188,24.47,18,0,2.37,GH,1703904342
365,undurkhaan,47.3194,110.6556,-11.15,96,91,1.4,MN,1703904342
366,tobelo,1.7284,128.0095,29.3,74,32,2.61,ID,1703904343
367,daru,-9.0763,143.2092,31.08,63,30,4.55,PG,1703904343
368,kogalym,62.2654,74.4791,-7.72,95,23,5.85,RU,1703904343
369,merke,42.8728,73.1786,-5.98,84,54,2.59,KZ,1703904343
370,ghat,24.9647,10.1728,11.23,30,8,1.01,LY,1703904344
371,lobujya,27.95,86.8167,-12.83,25,0,0.54,NP,1703904344
372,poxoreo,-15.8372,-54.3892,22.89,92,95,1.47,BR,1703904344
373,al hawatah,13.4167,34.6333,21.58,27,7,3.29,SD,1703904344
374,aripuana,-9.1667,-60.6333,23.02,98,70,1.0,BR,1703904344
375,bardai,11.65,7.2333,15.56,33,0,3.84,NG,1703904345
376,mek'ele,13.4967,39.4753,13.27,58,12,2.66,ET,1703904345
377,misratah,32.3754,15.0925,14.98,67,91,3.45,LY,1703904345
378,panambi,-28.2925,-53.5017,19.07,98,97,1.58,BR,1703904345
379,keflavik,64.0049,-22.5624,-2.76,86,75,3.6,IS,1703904346
380,guangyuan,32.442,105.823,10.44,68,15,0.3,CN,1703904346
381,alva,56.1528,-3.8051,1.82,87,6,1.55,GB,1703904346
382,itupiranga,-5.1347,-49.3267,26.18,96,100,2.06,BR,1703904346
383,dolores,-36.3132,-57.6792,9.78,64,1,3.34,AR,1703904347
384,argostolion,38.1811,20.489,13.23,80,100,2.2,GR,1703904347
385,natal,-5.795,-35.2094,26.12,83,0,2.06,BR,1703904066
386,egilsstadir,65.2653,-14.3948,-9.05,92,100,1.03,IS,1703904347
387,port saint john's,-31.6229,29.5448,20.13,84,100,4.79,ZA,1703904347
388,isangel,-19.55,169.2667,30.06,62,100,4.63,VU,1703904348
389,parabel',58.6978,81.4825,-6.96,85,100,9.2,RU,1703904348
390,ilha de mocambique,-15.0342,40.7358,27.15,87,100,4.53,MZ,1703904348
391,gorontalo,0.5412,123.0595,32.18,59,52,1.74,ID,1703904123
392,ulsteinvik,62.3432,5.8487,4.86,86,100,3.13,NO,1703904348
393,akureyri,65.6835,-18.0878,-16.04,92,0,1.03,IS,1703904349
394,metlili chaamba,32.2667,3.6333,6.52,65,0,0.0,DZ,1703904349
395,ugoofaaru,5.6667,73.0,27.18,82,97,7.68,MV,1703904349
396,fada,9.5667,8.3,18.46,34,3,1.97,NG,1703904349
397,kapa'a,22.0752,-159.319,26.99,78,14,0.89,US,1703904073
398,mejit,10.2753,170.8646,26.97,84,91,8.66,MH,1703904350
399,tochio-honcho,37.4667,139.0,8.64,83,45,0.25,JP,1703904350
400,cromer,52.9312,1.2989,5.08,83,94,9.35,GB,1703904350
401,katsuura,35.1333,140.3,13.3,54,1,1.79,JP,1703904350
402,pizhou,34.3114,117.9503,9.55,60,0,5.03,CN,1703904351
403,mundybash,53.211,87.2983,-2.05,79,99,5.0,RU,1703904351
404,tres palos,18.1833,-101.6167,18.84,93,0,1.33,MX,1703904351
405,salinera colan,-5.0333,-81.0667,23.76,75,100,4.55,PE,1703904351
406,porbandar,21.6422,69.6093,22.16,50,0,3.22,IN,1703904351
407,priekule,56.4468,21.5897,5.62,87,100,7.51,LV,1703904352
408,remire-montjoly,4.9167,-52.2667,26.02,94,20,0.51,GF,1703904352
409,ain sefra,32.75,-0.5833,8.32,29,75,1.05,DZ,1703904352
410,grand falls-windsor,48.9332,-55.6649,-3.61,89,100,1.79,CA,1703904352
411,mukalla,14.5425,49.1242,21.5,83,88,1.62,YE,1703904353
412,otra banda,18.6502,-68.6628,22.71,87,0,1.71,DO,1703904353
413,deniliquin,-35.5333,144.9667,24.3,29,20,6.29,AU,1703904353
414,mata-utu,-13.2816,-176.1745,28.79,74,82,4.76,WF,1703904353
415,kirakira,-10.4544,161.9205,30.42,71,86,3.12,SB,1703904353
416,steinbach,50.1667,8.5667,9.1,82,20,7.2,DE,1703904354
417,mwinilunga,-11.7358,24.4293,17.17,96,99,1.77,ZM,1703904354
418,ancud,-41.8697,-73.8203,11.23,84,0,1.66,CL,1703904354
419,cabedelo,-6.9811,-34.8339,24.37,75,85,3.24,BR,1703904238
420,gamay,12.3854,125.2979,27.01,92,96,4.09,PH,1703904354
421,tralee,52.2704,-9.7026,7.01,96,100,4.73,IE,1703904355
422,beverungen,51.6667,9.3667,6.29,85,74,7.75,DE,1703904355
423,southside,33.9245,-86.0225,5.86,84,93,2.13,US,1703904355
424,kidal,18.4411,1.4078,17.66,18,0,2.53,ML,1703904355
425,russkaya polyana,49.417,31.9201,4.04,87,95,3.84,UA,1703904356
426,broome,42.2506,-75.833,4.83,93,100,2.06,US,1703904356
427,port-vila,-17.7338,168.3219,25.78,100,100,2.06,VU,1703904356
428,faya-largeau,17.9257,19.1043,15.79,27,0,6.6,TD,1703904356
429,salinopolis,-0.6136,-47.3561,26.52,87,69,4.17,BR,1703904276
430,taoudenni,22.6783,-3.9836,14.94,28,8,4.02,ML,1703904354
431,berdigestyakh,62.0989,126.6992,-45.11,100,91,1.24,RU,1703904357
432,neelankarai,12.9455,80.2575,25.03,88,40,1.54,IN,1703904357
433,at taj,24.2049,23.2857,10.38,72,0,3.6,LY,1703904357
434,esmeralda,21.8525,-78.1169,21.94,72,100,3.67,CU,1703904358
435,bonthe,7.5264,-12.505,24.25,87,0,1.61,SL,1703904358
436,kalajoki,64.25,23.95,-10.61,93,95,3.55,FI,1703904358
437,tamanrasset,22.785,5.5228,7.95,34,0,2.06,DZ,1703904358
438,el calafate,-50.3408,-72.2768,13.04,65,100,4.69,AR,1703904359
439,qamdo,31.1667,97.2333,-8.59,20,0,0.72,CN,1703904359
440,ingeniero jacobacci,-41.3427,-69.5448,19.81,22,2,1.83,AR,1703904359
441,ciudad lazaro cardenas,17.9583,-102.2,22.53,76,0,1.45,MX,1703904359
442,zhaotong,27.3167,103.7167,8.97,61,0,2.37,CN,1703904360
443,jiuquan,39.7432,98.5174,-2.34,43,7,1.78,CN,1703904360
444,churapcha,62.0025,132.4325,-40.66,97,100,1.21,RU,1703904360
445,huarmey,-10.0681,-78.1522,22.05,85,100,3.11,PE,1703904360
446,sirte,31.2089,16.5887,14.69,56,100,3.82,LY,1703904360
447,st. john's,47.5649,-52.7093,-0.18,95,100,3.58,CA,1703904361
448,tosontsengel,48.7567,98.2839,-20.28,90,93,0.7,MN,1703904361
449,izhevsk,56.85,53.2333,-22.04,100,96,1.79,RU,1703904211
450,karratha,-20.7377,116.8463,38.53,23,10,4.5,AU,1703904361
451,crane,31.3974,-102.3501,8.85,30,0,2.39,US,1703904301
452,puerto santa,-8.9906,-78.6456,21.79,85,98,3.44,PE,1703904353
453,nueil-les-aubiers,46.9377,-0.5887,9.94,95,100,4.42,FR,1703904362
454,qa'en,33.7265,59.1844,1.26,80,0,0.27,IR,1703904362
455,visegrad,43.7847,19.2992,4.43,95,77,1.1,BA,1703904363
456,gogrial,8.5332,28.1004,21.08,32,33,2.37,SS,1703904343
457,batesville,35.7698,-91.641,3.86,85,100,1.54,US,1703904173
458,timmins,48.4669,-81.3331,-8.1,93,100,4.12,CA,1703904301
459,martapura,-3.4167,114.85,30.05,74,40,2.57,ID,1703904364
460,east london,-33.0153,27.9116,20.64,85,94,5.65,ZA,1703904343
461,queenstown,-31.8976,26.8753,17.06,85,87,0.7,ZA,1703904359
462,holualoa,19.6228,-155.9522,24.88,81,75,3.6,US,1703904365
463,haibara-akanedai,34.5333,135.95,9.25,37,21,1.52,JP,1703904365
464,monki,53.405,22.7979,6.49,88,100,6.07,PL,1703904365
465,ironwood,46.4547,-90.171,-4.81,93,0,0.0,US,1703904366
466,baardheere,2.3446,42.2764,25.99,75,23,3.77,SO,1703904366
467,seini,47.75,23.2833,5.9,100,99,1.03,RO,1703904366
468,chengzihe,45.3333,131.0667,-9.06,92,100,1.85,CN,1703904367
469,mossel bay,-34.1831,22.146,18.96,94,100,0.96,ZA,1703904367
470,puerto ayacucho,5.6639,-67.6236,25.16,84,99,1.42,VE,1703904368
471,sarkand,45.41,79.9186,-2.78,88,100,1.25,KZ,1703904368
472,tyre,33.2733,35.1939,14.0,57,0,2.39,LB,1703904368
473,ales,44.1333,4.0833,5.6,84,100,1.63,FR,1703904368
474,shahin dezh,36.6793,46.5669,1.17,69,0,0.66,IR,1703904369
475,pagar alam,-4.0167,103.2667,27.49,70,88,1.67,ID,1703904369
476,nova sintra,14.8667,-24.7167,23.25,70,93,4.29,CV,1703904369
477,irymple,-34.25,142.1667,22.27,46,0,6.55,AU,1703904370
478,yung shue wan,22.2333,114.1167,22.11,69,19,0.45,HK,1703904370
479,duyun,26.2667,107.5167,14.95,72,87,1.14,CN,1703904370
480,kaindy,42.8247,73.6759,-5.83,90,73,2.03,KG,1703904371
481,yarkovo,57.4028,67.0786,-10.2,90,100,8.35,RU,1703904371
482,chui,-33.6971,-53.4616,15.11,63,19,5.68,UY,1703904249
483,bikaner,28.0167,73.3,13.83,51,100,2.92,IN,1703904372
484,winnemucca,40.973,-117.7357,8.03,49,0,4.63,US,1703904372
485,nebraska city,40.6767,-95.8592,0.89,80,0,4.12,US,1703904078
486,manga,11.6636,-1.0731,19.56,18,2,3.8,BF,1703904373
487,trairi,-3.2778,-39.2689,26.5,84,77,3.51,BR,1703904213
488,kenora,49.8167,-94.4337,-3.46,100,100,1.54,CA,1703904315
489,belyy yar,53.6039,91.3903,-6.06,93,100,0.0,RU,1703904374
490,dwarka,22.2394,68.9678,22.34,57,0,3.06,IN,1703904374
491,nuku'alofa,-21.1333,-175.2,29.19,70,40,6.69,TO,1703904374
492,mollendo,-17.0231,-72.0147,21.36,85,99,2.73,PE,1703904374
493,khuzdar,27.7384,66.6434,10.65,34,35,1.52,PK,1703904375
494,kalevala,65.2,31.1667,-12.17,96,99,2.68,RU,1703904375
495,belvedere marittimo,39.6179,15.8617,10.06,80,100,0.56,IT,1703904375
496,prince rupert,54.3161,-130.3201,12.05,80,100,10.29,CA,1703904266
497,phan rang-thap cham,11.5667,108.9833,30.16,56,47,4.88,VN,1703904376
498,letterkenny,54.95,-7.7333,3.16,92,100,2.08,IE,1703904376
499,la'ie,21.6477,-157.9253,26.98,65,45,2.24,US,1703904377
500,mananara,-16.1667,49.7667,24.24,92,100,1.65,MG,1703904377
501,inirida,3.8653,-67.9239,23.76,95,97,1.0,CO,1703904377
502,bodaybo,57.8506,114.1933,-18.86,97,100,0.55,RU,1703904378
503,talalayivka,50.9578,31.9209,3.23,93,100,4.44,UA,1703904189
504,plouguerneau,48.6,-4.5,11.28,93,100,6.69,FR,1703904378
505,conceicao da barra,-18.5933,-39.7322,24.69,84,100,3.42,BR,1703904085
506,bor,56.3567,44.0669,-4.04,96,100,2.74,RU,1703904379
507,fort bragg,35.139,-79.006,7.68,70,100,4.12,US,1703904379
508,mankono,8.0586,-6.1897,21.06,16,0,1.49,CI,1703904379
509,tangalle,6.024,80.7911,26.09,82,95,6.92,LK,1703904380
510,khorol,49.7837,33.2783,3.32,90,100,4.05,UA,1703904380
511,kununurra,-15.7667,128.7333,37.99,39,67,3.09,AU,1703904380
512,fauske,67.2588,15.3918,-3.98,83,71,4.84,NO,1703904381
513,canutama,-6.5339,-64.3831,23.22,98,100,1.1,BR,1703904381
514,geneina,13.45,22.45,15.03,25,2,4.74,SD,1703904381
515,santa barbara,34.7333,-120.0343,12.46,75,0,2.06,US,1703904256
516,sambava,-14.2667,50.1667,25.58,87,100,1.71,MG,1703904382
517,kurumkan,54.3,110.3,-14.93,88,55,1.79,RU,1703904382
518,khandyga,62.6667,135.6,-43.34,99,98,0.69,RU,1703904382
519,zuni pueblo,35.0725,-108.8506,-4.65,35,1,0.79,US,1703904383
520,kiunga,-6.1219,141.2906,34.37,51,91,1.5,PG,1703904383
521,malango,-2.9627,119.9001,28.61,63,53,1.47,ID,1703904383
522,gadzhiyevo,69.2551,33.3362,-16.83,100,97,2.02,RU,1703904384
523,ketchikan,55.3422,-131.6461,11.99,82,100,4.12,US,1703904384
524,sao felix do xingu,-6.6447,-51.995,23.37,95,100,0.64,BR,1703904384
525,parker,32.7668,-97.8003,8.28,54,1,0.89,US,1703904385
526,anloga,5.7947,0.8973,27.24,76,14,2.99,GH,1703904385
527,kudahuvadhoo,2.6708,72.8944,25.87,83,100,2.31,MV,1703904385
528,guarapari,-20.6667,-40.4975,26.61,86,40,3.82,BR,1703904127
529,belogorsk,50.9158,128.4611,-23.0,91,33,2.09,RU,1703904386
530,baykalovo,57.3981,63.7684,-11.11,87,100,9.04,RU,1703904386
531,wynyard,-41.0,145.7167,16.71,42,100,6.07,AU,1703904386
532,monrovia,6.3005,-10.7969,25.65,83,1,0.93,LR,1703904326
533,soio,-6.1349,12.3689,24.86,86,100,0.57,AO,1703904387
534,san felipe,10.3399,-68.7425,22.73,98,96,1.1,VE,1703904387
535,itoman,26.1247,127.6694,25.01,78,75,10.29,JP,1703904388
536,nar'yan-mar,67.6713,53.087,-16.05,97,100,4.02,RU,1703904388
537,casablanca,33.5928,-7.6192,15.74,59,26,3.15,MA,1703903905
538,malvan,16.0667,73.4667,25.1,48,52,2.96,IN,1703904388
539,reno,39.5296,-119.8138,10.81,51,75,1.54,US,1703904389
540,mount pearl,47.5166,-52.7813,-0.64,95,100,2.68,CA,1703904289
541,snovsk,51.8239,31.9428,3.75,93,100,5.41,UA,1703904390
542,santana,-0.0583,-51.1817,29.1,79,20,3.09,BR,1703904390
543,ouadda,8.0777,22.4007,18.48,36,48,2.29,CF,1703904390
544,mugia,43.1041,-9.2179,8.28,81,69,5.54,ES,1703904391
545,santyoku,37.4406,129.1708,8.0,46,99,1.96,KR,1703904391
546,guanica,17.9716,-66.908,24.99,61,9,2.35,PR,1703904391
547,kenai,60.5544,-151.2583,-20.95,84,0,2.57,US,1703904392
548,kavieng,-2.5744,150.7967,28.75,74,100,2.56,PG,1703904392
549,dazhou,31.2159,107.5009,11.62,78,2,0.59,CN,1703904392
550,granada,37.25,-3.25,9.05,42,95,1.37,ES,1703904392
551,san patricio,28.017,-97.5169,13.24,50,0,3.52,US,1703904393
552,mobaye,4.319,21.1786,21.63,45,94,0.56,CF,1703904393
553,tolanaro,-25.0319,46.9987,25.04,88,75,7.2,MG,1703904393
554,sabang,5.8933,95.3214,26.75,84,100,8.83,ID,1703904394
555,santarem,-2.4431,-54.7083,29.07,79,75,2.06,BR,1703904394
556,horovice,49.836,13.9027,9.05,80,100,7.48,CZ,1703904394
557,smithers,54.7804,-127.1743,4.18,81,100,1.54,CA,1703904319
558,namdrik,5.5994,168.1028,28.57,75,89,5.95,MH,1703904395
559,hauterive,46.0901,3.4459,6.11,93,99,1.8,FR,1703904395
560,romblon,12.5751,122.2708,27.38,80,89,6.37,PH,1703904395
561,orapa,-21.2833,25.3667,18.0,80,50,8.77,BW,1703904396
562,masterton,-40.9597,175.6575,22.67,61,78,5.24,NZ,1703904396
563,zeya,53.75,127.2667,-24.73,83,4,0.11,RU,1703904397
564,buka,40.8108,69.1986,-0.89,79,11,1.36,UZ,1703904397
565,mairang,25.5667,91.6333,12.85,61,0,0.7,IN,1703904397
566,thiruvarur,10.7667,79.65,25.66,83,100,4.79,IN,1703904397
567,moultrie,31.1799,-83.7891,3.94,93,0,0.0,US,1703904398
568,galax,36.6612,-80.924,0.75,80,100,3.6,US,1703904277
569,falam,22.9167,93.6833,15.26,63,3,0.94,MM,1703904398
570,wangkui,46.8333,126.5,-13.08,83,100,4.11,CN,1703904399
571,axim,4.8699,-2.2405,26.29,81,0,2.2,GH,1703904399
572,mirnyy,62.5353,113.9611,-30.44,97,100,1.68,RU,1703904399
573,masina,-4.3836,15.3914,21.47,98,100,0.85,CD,1703904399
574,awjilah,29.1081,21.2869,13.0,71,31,2.35,LY,1703904400
575,bandiagara,14.3501,-3.6104,19.49,15,0,3.44,ML,1703904400
576,moranbah,-22.0016,148.0466,37.57,27,0,4.06,AU,1703904400
577,luanda,-8.8368,13.2343,25.0,88,40,1.03,AO,1703904357
578,al khafji,28.4391,48.4913,18.51,65,100,4.58,SA,1703904401
579,mumford,5.2618,-0.759,26.59,80,0,1.24,GH,1703904401
580,sao vicente,-23.9631,-46.3919,33.1,26,100,0.89,BR,1703904128
581,matoury,4.8483,-52.3317,25.98,94,20,0.51,GF,1703904402
582,nantucket,41.2835,-70.0995,8.34,93,75,3.6,US,1703904402
583,doka,13.5167,35.7667,19.94,31,8,3.28,SD,1703904402
584,selfoss,63.9331,-20.9971,-4.42,92,98,3.21,IS,1703904403
585,luna,10.9667,123.2333,28.33,77,99,4.27,PH,1703904403
586,san antonio de pale,-1.4014,5.6325,27.2,79,74,3.42,GQ,1703904398
587,lupane,-18.9315,27.807,18.34,83,97,3.77,ZW,1703904403
588,mar del plata,-38.0023,-57.5575,12.19,76,48,3.09,AR,1703904115
589,kijang,35.2442,129.2139,2.85,46,1,3.76,KR,1703904404
590,mikhaylovsk,45.1283,42.0256,3.12,41,0,1.0,RU,1703904404
591,argo,37.6333,22.7333,9.32,74,85,1.18,GR,1703904404
592,gadarwara,22.9167,78.7833,17.02,53,7,1.84,IN,1703904405
593,la passe,45.5549,-0.8967,7.13,94,83,3.27,FR,1703904405
594,al manaqil,14.2459,32.9891,17.64,29,1,4.72,SD,1703904405
595,castelo,-20.6036,-41.1847,24.34,87,77,2.1,BR,1703904405
